[
  {"theft":1,"status":"Pending","input":10.5,"output":6.3,"poleId":"POLE_001","poleNumber":101,"latitude":23.1667,"longitude":79.9333,"address":"Main Road, Napier Town","timestamp":"2026-05-03T13:50:00Z","area":"Napier Town"},
  {"theft":1,"status":"Investigating","input":10.2,"output":5.8,"poleId":"POLE_002","poleNumber":102,"latitude":23.1670,"longitude":79.9350,"address":"Market Square, Napier Town","timestamp":"2026-05-03T13:45:00Z","area":"Napier Town"},
  {"theft":1,"status":"Investigating","input":11.2,"output":7.1,"poleId":"POLE_003","poleNumber":103,"latitude":23.1610,"longitude":79.9310,"address":"Street 4, Wright Town","timestamp":"2026-05-03T13:40:00Z","area":"Wright Town"},
  {"theft":1,"status":"Pending","input":10.9,"output":6.4,"poleId":"POLE_004","poleNumber":104,"latitude":23.1620,"longitude":79.9300,"address":"Park Avenue, Wright Town","timestamp":"2026-05-03T13:35:00Z","area":"Wright Town"},
  {"theft":1,"status":"Pending","input":10.1,"output":5.9,"poleId":"POLE_005","poleNumber":105,"latitude":23.1450,"longitude":79.9400,"address":"Cantonment, Sadar","timestamp":"2026-05-03T13:20:00Z","area":"Sadar"},
  {"theft":1,"status":"Pending","input":11.0,"output":6.5,"poleId":"POLE_006","poleNumber":106,"latitude":23.1440,"longitude":79.9420,"address":"Cantonment North, Sadar","timestamp":"2026-05-03T13:10:00Z","area":"Sadar"},
  {"theft":1,"status":"Resolved","input":10.8,"output":6.8,"poleId":"POLE_007","poleNumber":107,"latitude":23.1500,"longitude":79.9200,"address":"Bazar, Gorakhpur","timestamp":"2026-05-03T13:05:00Z","area":"Gorakhpur"},
  {"theft":1,"status":"Pending","input":10.5,"output":6.0,"poleId":"POLE_008","poleNumber":108,"latitude":23.1510,"longitude":79.9220,"address":"Bazar West, Gorakhpur","timestamp":"2026-05-03T12:55:00Z","area":"Gorakhpur"},
  {"theft":1,"status":"Pending","input":11.5,"output":7.4,"poleId":"POLE_009","poleNumber":109,"latitude":23.1900,"longitude":80.0000,"address":"Industrial Area, Ranjhi","timestamp":"2026-05-03T12:50:00Z","area":"Ranjhi"},
  {"theft":1,"status":"Resolved","input":10.9,"output":6.5,"poleId":"POLE_012","poleNumber":112,"latitude":23.1550,"longitude":79.8900,"address":"Medical College Road, Garha","timestamp":"2026-05-03T12:30:00Z","area":"Garha"},
  {"theft":1,"status":"Pending","input":10.3,"output":6.1,"poleId":"POLE_014","poleNumber":114,"latitude":23.2100,"longitude":79.9500,"address":"Station Road, Adhartal","timestamp":"2026-05-03T12:10:00Z","area":"Adhartal"},
  {"theft":1,"status":"Pending","input":11.2,"output":7.0,"poleId":"POLE_015","poleNumber":115,"latitude":23.2110,"longitude":79.9510,"address":"Station Road East, Adhartal","timestamp":"2026-05-03T11:55:00Z","area":"Adhartal"},
  {"theft":1,"status":"Resolved","input":11.0,"output":7.0,"poleId":"POLE_017","poleNumber":117,"latitude":23.1580,"longitude":79.9100,"address":"Fort Road, Madan Mahal","timestamp":"2026-05-03T11:40:00Z","area":"Madan Mahal"},
  {"theft":1,"status":"Pending","input":10.7,"output":6.9,"poleId":"POLE_019","poleNumber":119,"latitude":23.1680,"longitude":79.9450,"address":"High Court Road, Civil Lines","timestamp":"2026-05-03T11:20:00Z","area":"Civil Lines"},
  {"theft":1,"status":"Investigating","input":10.6,"output":6.2,"poleId":"POLE_020","poleNumber":120,"latitude":23.1690,"longitude":79.9460,"address":"High Court North, Civil Lines","timestamp":"2026-05-03T11:15:00Z","area":"Civil Lines"},
  {"theft":1,"status":"Resolved","input":10.4,"output":6.6,"poleId":"POLE_003","poleNumber":103,"latitude":23.1610,"longitude":79.9310,"address":"Street 4, Wright Town","timestamp":"2026-05-03T12:20:00Z","area":"Wright Town"},
  {"theft":1,"status":"Resolved","input":11.3,"output":7.2,"poleId":"POLE_007","poleNumber":107,"latitude":23.1500,"longitude":79.9200,"address":"Bazar, Gorakhpur","timestamp":"2026-05-03T08:55:00Z","area":"Gorakhpur"},
  {"theft":1,"status":"Resolved","input":10.6,"output":6.4,"poleId":"POLE_012","poleNumber":112,"latitude":23.1550,"longitude":79.8900,"address":"Medical College Road, Garha","timestamp":"2026-05-02T22:30:00Z","area":"Garha"},
  {"theft":1,"status":"Resolved","input":10.2,"output":6.0,"poleId":"POLE_014","poleNumber":114,"latitude":23.2100,"longitude":79.9500,"address":"Station Road, Adhartal","timestamp":"2026-05-02T18:10:00Z","area":"Adhartal"},
  {"theft":1,"status":"Resolved","input":11.1,"output":7.3,"poleId":"POLE_001","poleNumber":101,"latitude":23.1667,"longitude":79.9333,"address":"Main Road, Napier Town","timestamp":"2026-05-02T14:30:00Z","area":"Napier Town"},
  {"theft":1,"status":"Resolved","input":10.0,"output":5.8,"poleId":"POLE_019","poleNumber":119,"latitude":23.1680,"longitude":79.9450,"address":"High Court Road, Civil Lines","timestamp":"2026-05-02T10:20:00Z","area":"Civil Lines"},
  {"theft":1,"status":"Resolved","input":10.8,"output":6.7,"poleId":"POLE_009","poleNumber":109,"latitude":23.1900,"longitude":80.0000,"address":"Industrial Area, Ranjhi","timestamp":"2026-05-01T22:40:00Z","area":"Ranjhi"},
  {"theft":1,"status":"Resolved","input":11.4,"output":7.5,"poleId":"POLE_005","poleNumber":105,"latitude":23.1450,"longitude":79.9400,"address":"Cantonment, Sadar","timestamp":"2026-05-01T18:10:00Z","area":"Sadar"},
  {"theft":1,"status":"Resolved","input":10.5,"output":6.2,"poleId":"POLE_003","poleNumber":103,"latitude":23.1610,"longitude":79.9310,"address":"Street 4, Wright Town","timestamp":"2026-05-01T14:20:00Z","area":"Wright Town"},
  {"theft":1,"status":"Resolved","input":10.9,"output":6.8,"poleId":"POLE_017","poleNumber":117,"latitude":23.1580,"longitude":79.9100,"address":"Fort Road, Madan Mahal","timestamp":"2026-05-01T10:40:00Z","area":"Madan Mahal"},
  {"theft":1,"status":"Resolved","input":10.3,"output":6.1,"poleId":"POLE_012","poleNumber":112,"latitude":23.1550,"longitude":79.8900,"address":"Medical College Road, Garha","timestamp":"2026-04-30T22:30:00Z","area":"Garha"},
  {"theft":1,"status":"Resolved","input":11.0,"output":7.0,"poleId":"POLE_007","poleNumber":107,"latitude":23.1500,"longitude":79.9200,"address":"Bazar, Gorakhpur","timestamp":"2026-04-30T18:55:00Z","area":"Gorakhpur"},
  {"theft":1,"status":"Resolved","input":10.6,"output":6.5,"poleId":"POLE_014","poleNumber":114,"latitude":23.2100,"longitude":79.9500,"address":"Station Road, Adhartal","timestamp":"2026-04-30T14:10:00Z","area":"Adhartal"},
  {"theft":1,"status":"Resolved","input":10.1,"output":5.7,"poleId":"POLE_001","poleNumber":101,"latitude":23.1667,"longitude":79.9333,"address":"Main Road, Napier Town","timestamp":"2026-04-30T10:30:00Z","area":"Napier Town"},
  {"theft":1,"status":"Resolved","input":11.2,"output":7.1,"poleId":"POLE_019","poleNumber":119,"latitude":23.1680,"longitude":79.9450,"address":"High Court Road, Civil Lines","timestamp":"2026-04-29T22:20:00Z","area":"Civil Lines"},
  {"theft":1,"status":"Resolved","input":10.7,"output":6.6,"poleId":"POLE_009","poleNumber":109,"latitude":23.1900,"longitude":80.0000,"address":"Industrial Area, Ranjhi","timestamp":"2026-04-29T18:40:00Z","area":"Ranjhi"},
  {"theft":1,"status":"Resolved","input":10.4,"output":6.3,"poleId":"POLE_005","poleNumber":105,"latitude":23.1450,"longitude":79.9400,"address":"Cantonment, Sadar","timestamp":"2026-04-29T14:10:00Z","area":"Sadar"},
  {"theft":1,"status":"Resolved","input":11.5,"output":7.4,"poleId":"POLE_003","poleNumber":103,"latitude":23.1610,"longitude":79.9310,"address":"Street 4, Wright Town","timestamp":"2026-04-29T10:20:00Z","area":"Wright Town"},
  {"theft":1,"status":"Resolved","input":10.8,"output":6.7,"poleId":"POLE_017","poleNumber":117,"latitude":23.1580,"longitude":79.9100,"address":"Fort Road, Madan Mahal","timestamp":"2026-04-28T22:40:00Z","area":"Madan Mahal"},
  {"theft":1,"status":"Resolved","input":10.2,"output":6.0,"poleId":"POLE_012","poleNumber":112,"latitude":23.1550,"longitude":79.8900,"address":"Medical College Road, Garha","timestamp":"2026-04-28T18:30:00Z","area":"Garha"},
  {"theft":1,"status":"Resolved","input":10.0,"output":5.9,"poleId":"POLE_007","poleNumber":107,"latitude":23.1500,"longitude":79.9200,"address":"Bazar, Gorakhpur","timestamp":"2026-04-28T12:55:00Z","area":"Gorakhpur"},
  {"theft":1,"status":"Resolved","input":11.1,"output":7.2,"poleId":"POLE_014","poleNumber":114,"latitude":23.2100,"longitude":79.9500,"address":"Station Road, Adhartal","timestamp":"2026-04-28T08:10:00Z","area":"Adhartal"},
  {"theft":1,"status":"Resolved","input":10.9,"output":6.9,"poleId":"POLE_019","poleNumber":119,"latitude":23.1680,"longitude":79.9450,"address":"High Court Road, Civil Lines","timestamp":"2026-04-27T18:20:00Z","area":"Civil Lines"},
  {"theft":1,"status":"Resolved","input":10.5,"output":6.4,"poleId":"POLE_001","poleNumber":101,"latitude":23.1667,"longitude":79.9333,"address":"Main Road, Napier Town","timestamp":"2026-04-27T14:30:00Z","area":"Napier Town"}
]
